{
  "type" : "FeatureCollection",
  "features" : [
    {
      "type" : "Feature",
      "id" : 0,
      "geometry" : {
        "type" : "Point",
        "coordinates" : [
          38.762990316503192,
          9.035278976160102
        ]
      },
      "properties" : {
        "FID" : 0,
        "stop_name" : "4KILO"
      }
    },
    {
      "type" : "Feature",
      "id" : 1,
      "geometry" : {
        "type" : "Point",
        "coordinates" : [
          38.75247588929453,
          9.0186371347310672
        ]
      },
      "properties" : {
        "FID" : 1,
        "stop_name" : "BEHIRAWI"
      }
    },
    {
      "type" : "Feature",
      "id" : 2,
      "geometry" : {
        "type" : "Point",
        "coordinates" : [
          38.747140108868862,
          9.0107219275020221
        ]
      },
      "properties" : {
        "FID" : 2,
        "stop_name" : "MEXICO"
      }
    },
    {
      "type" : "Feature",
      "id" : 3,
      "geometry" : {
        "type" : "Point",
        "coordinates" : [
          38.77427224545572,
          9.0557964942163753
        ]
      },
      "properties" : {
        "FID" : 3,
        "stop_name" : "KELA"
      }
    },
    {
      "type" : "Feature",
      "id" : 4,
      "geometry" : {
        "type" : "Point",
        "coordinates" : [
          38.789758418273259,
          8.9885715945110221
        ]
      },
      "properties" : {
        "FID" : 4,
        "stop_name" : "MILLINUME ADARASH"
      }
    },
    {
      "type" : "Feature",
      "id" : 5,
      "geometry" : {
        "type" : "Point",
        "coordinates" : [
          38.788214201851062,
          8.9893658306617024
        ]
      },
      "properties" : {
        "FID" : 5,
        "stop_name" : "MILLINIUM ADARASH"
      }
    },
    {
      "type" : "Feature",
      "id" : 6,
      "geometry" : {
        "type" : "Point",
        "coordinates" : [
          38.786086263971832,
          8.990183494411264
        ]
      },
      "properties" : {
        "FID" : 6,
        "stop_name" : "FRIEND SHIP"
      }
    },
    {
      "type" : "Feature",
      "id" : 7,
      "geometry" : {
        "type" : "Point",
        "coordinates" : [
          38.779859744261245,
          8.9922143326867126
        ]
      },
      "properties" : {
        "FID" : 7,
        "stop_name" : "RUWANDA"
      }
    },
    {
      "type" : "Feature",
      "id" : 8,
      "geometry" : {
        "type" : "Point",
        "coordinates" : [
          38.772425135857489,
          8.9965272962137686
        ]
      },
      "properties" : {
        "FID" : 8,
        "stop_name" : "BOLE MATEMIYA"
      }
    },
    {
      "type" : "Feature",
      "id" : 9,
      "geometry" : {
        "type" : "Point",
        "coordinates" : [
          38.769717145032615,
          9.0011391752580714
        ]
      },
      "properties" : {
        "FID" : 9,
        "stop_name" : "SHEWA DABO"
      }
    },
    {
      "type" : "Feature",
      "id" : 10,
      "geometry" : {
        "type" : "Point",
        "coordinates" : [
          38.767353965832612,
          9.0055693692541201
        ]
      },
      "properties" : {
        "FID" : 10,
        "stop_name" : "DEMBEL"
      }
    },
    {
      "type" : "Feature",
      "id" : 11,
      "geometry" : {
        "type" : "Point",
        "coordinates" : [
          38.764648404759114,
          9.0089315952408846
        ]
      },
      "properties" : {
        "FID" : 11,
        "stop_name" : "FILAMINGO"
      }
    },
    {
      "type" : "Feature",
      "id" : 12,
      "geometry" : {
        "type" : "Point",
        "coordinates" : [
          38.762654528709682,
          9.0118702836632725
        ]
      },
      "properties" : {
        "FID" : 12,
        "stop_name" : "ESTIFANOSE"
      }
    },
    {
      "type" : "Feature",
      "id" : 13,
      "geometry" : {
        "type" : "Point",
        "coordinates" : [
          38.76282649522485,
          9.012482504629304
        ]
      },
      "properties" : {
        "FID" : 13,
        "stop_name" : "ESTIFANOS"
      }
    },
    {
      "type" : "Feature",
      "id" : 14,
      "geometry" : {
        "type" : "Point",
        "coordinates" : [
          38.764059208796773,
          8.9583018242333488
        ]
      },
      "properties" : {
        "FID" : 14,
        "stop_name" : "ADY ABABA"
      }
    },
    {
      "type" : "Feature",
      "id" : 15,
      "geometry" : {
        "type" : "Point",
        "coordinates" : [
          38.760778513659488,
          8.9733807342955014
        ]
      },
      "properties" : {
        "FID" : 15,
        "stop_name" : "MAMO"
      }
    },
    {
      "type" : "Feature",
      "id" : 16,
      "geometry" : {
        "type" : "Point",
        "coordinates" : [
          38.758712682702594,
          9.0043254764807958
        ]
      },
      "properties" : {
        "FID" : 16,
        "stop_name" : "RICHE"
      }
    },
    {
      "type" : "Feature",
      "id" : 17,
      "geometry" : {
        "type" : "Point",
        "coordinates" : [
          38.752621668058232,
          9.032993136927475
        ]
      },
      "properties" : {
        "FID" : 17,
        "stop_name" : "PISSA ARADA"
      }
    },
    {
      "type" : "Feature",
      "id" : 18,
      "geometry" : {
        "type" : "Point",
        "coordinates" : [
          38.743877048271514,
          8.9645002289629119
        ]
      },
      "properties" : {
        "FID" : 18,
        "stop_name" : "MEBRAT CONDOMINIUM"
      }
    },
    {
      "type" : "Feature",
      "id" : 19,
      "geometry" : {
        "type" : "Point",
        "coordinates" : [
          38.748714741401066,
          8.9700760356577049
        ]
      },
      "properties" : {
        "FID" : 19,
        "stop_name" : "MEBRAT NIGIST HOTEL"
      }
    },
    {
      "type" : "Feature",
      "id" : 20,
      "geometry" : {
        "type" : "Point",
        "coordinates" : [
          38.749105384870624,
          8.9771284638356228
        ]
      },
      "properties" : {
        "FID" : 20,
        "stop_name" : "GOFA"
      }
    },
    {
      "type" : "Feature",
      "id" : 21,
      "geometry" : {
        "type" : "Point",
        "coordinates" : [
          38.749846553433386,
          8.982554027231485
        ]
      },
      "properties" : {
        "FID" : 21,
        "stop_name" : "KERA"
      }
    },
    {
      "type" : "Feature",
      "id" : 22,
      "geometry" : {
        "type" : "Point",
        "coordinates" : [
          38.750062133374897,
          8.9843474668121477
        ]
      },
      "properties" : {
        "FID" : 22,
        "stop_name" : "KERA DOWNTOWN"
      }
    },
    {
      "type" : "Feature",
      "id" : 23,
      "geometry" : {
        "type" : "Point",
        "coordinates" : [
          38.738350863161614,
          8.9929599350899494
        ]
      },
      "properties" : {
        "FID" : 23,
        "stop_name" : "SAR BET"
      }
    },
    {
      "type" : "Feature",
      "id" : 24,
      "geometry" : {
        "type" : "Point",
        "coordinates" : [
          38.731577170822192,
          8.9733549822103384
        ]
      },
      "properties" : {
        "FID" : 24,
        "stop_name" : "MEKANISA"
      }
    },
    {
      "type" : "Feature",
      "id" : 25,
      "geometry" : {
        "type" : "Point",
        "coordinates" : [
          38.734564030741801,
          8.9387617997325588
        ]
      },
      "properties" : {
        "FID" : 25,
        "stop_name" : "HAILE GARMENT"
      }
    },
    {
      "type" : "Feature",
      "id" : 26,
      "geometry" : {
        "type" : "Point",
        "coordinates" : [
          38.878399999999999,
          9.0559399999999997
        ]
      },
      "properties" : {
        "FID" : 26,
        "stop_name" : "TAFO"
      }
    },
    {
      "type" : "Feature",
      "id" : 27,
      "geometry" : {
        "type" : "Point",
        "coordinates" : [
          38.877774847691924,
          9.0401299607502086
        ]
      },
      "properties" : {
        "FID" : 27,
        "stop_name" : "GEBRIEL"
      }
    },
    {
      "type" : "Feature",
      "id" : 28,
      "geometry" : {
        "type" : "Point",
        "coordinates" : [
          38.877900533081849,
          9.0354895264945956
        ]
      },
      "properties" : {
        "FID" : 28,
        "stop_name" : "YEKA NO 1CONDOMINUME"
      }
    },
    {
      "type" : "Feature",
      "id" : 29,
      "geometry" : {
        "type" : "Point",
        "coordinates" : [
          38.8765165376916,
          9.0221317897345319
        ]
      },
      "properties" : {
        "FID" : 29,
        "stop_name" : "AYAT ADEBABAY"
      }
    },
    {
      "type" : "Feature",
      "id" : 30,
      "geometry" : {
        "type" : "Point",
        "coordinates" : [
          38.875965942415178,
          9.02207987543534
        ]
      },
      "properties" : {
        "FID" : 30,
        "stop_name" : "HILL BOTTOM"
      }
    },
    {
      "type" : "Feature",
      "id" : 31,
      "geometry" : {
        "type" : "Point",
        "coordinates" : [
          38.868592980840369,
          9.0208781743811066
        ]
      },
      "properties" : {
        "FID" : 31,
        "stop_name" : "AYAT"
      }
    },
    {
      "type" : "Feature",
      "id" : 32,
      "geometry" : {
        "type" : "Point",
        "coordinates" : [
          38.841418776253711,
          9.0213482726545617
        ]
      },
      "properties" : {
        "FID" : 32,
        "stop_name" : "ST MIKALE"
      }
    },
    {
      "type" : "Feature",
      "id" : 33,
      "geometry" : {
        "type" : "Point",
        "coordinates" : [
          38.834204537800112,
          9.0216390060502114
        ]
      },
      "properties" : {
        "FID" : 33,
        "stop_name" : "CIVIL SERVICE"
      }
    },
    {
      "type" : "Feature",
      "id" : 34,
      "geometry" : {
        "type" : "Point",
        "coordinates" : [
          38.821513267662993,
          9.018754522484226
        ]
      },
      "properties" : {
        "FID" : 34,
        "stop_name" : "GURD SHOLA"
      }
    },
    {
      "type" : "Feature",
      "id" : 35,
      "geometry" : {
        "type" : "Point",
        "coordinates" : [
          38.802646635702132,
          9.0203147152669256
        ]
      },
      "properties" : {
        "FID" : 35,
        "stop_name" : "MEGENAGIA"
      }
    },
    {
      "type" : "Feature",
      "id" : 36,
      "geometry" : {
        "type" : "Point",
        "coordinates" : [
          38.825189115761511,
          9.0253558462452173
        ]
      },
      "properties" : {
        "FID" : 36,
        "stop_name" : "LAMBERAT"
      }
    },
    {
      "type" : "Feature",
      "id" : 37,
      "geometry" : {
        "type" : "Point",
        "coordinates" : [
          38.801717064275287,
          9.0217767824275477
        ]
      },
      "properties" : {
        "FID" : 37,
        "stop_name" : "MEGENAGA"
      }
    },
    {
      "type" : "Feature",
      "id" : 38,
      "geometry" : {
        "type" : "Point",
        "coordinates" : [
          38.857068688782675,
          8.9842096634668636
        ]
      },
      "properties" : {
        "FID" : 38,
        "stop_name" : "SEMIT CONDOMINIUM"
      }
    },
    {
      "type" : "Feature",
      "id" : 39,
      "geometry" : {
        "type" : "Point",
        "coordinates" : [
          38.858240698549437,
          8.9894934927471937
        ]
      },
      "properties" : {
        "FID" : 39,
        "stop_name" : "HULETEGA BER"
      }
    },
    {
      "type" : "Feature",
      "id" : 40,
      "geometry" : {
        "type" : "Point",
        "coordinates" : [
          38.860657320571882,
          8.9941330813368285
        ]
      },
      "properties" : {
        "FID" : 40,
        "stop_name" : "TENA TABEYA"
      }
    },
    {
      "type" : "Feature",
      "id" : 41,
      "geometry" : {
        "type" : "Point",
        "coordinates" : [
          38.857312285266559,
          9.0014422225501747
        ]
      },
      "properties" : {
        "FID" : 41,
        "stop_name" : "GOMISTA"
      }
    },
    {
      "type" : "Feature",
      "id" : 42,
      "geometry" : {
        "type" : "Point",
        "coordinates" : [
          38.829219999999999,
          8.9913399999999992
        ]
      },
      "properties" : {
        "FID" : 42,
        "stop_name" : "GORO"
      }
    },
    {
      "type" : "Feature",
      "id" : 43,
      "geometry" : {
        "type" : "Point",
        "coordinates" : [
          38.82685,
          8.9938600000000015
        ]
      },
      "properties" : {
        "FID" : 43,
        "stop_name" : "GORO SCHOOL"
      }
    },
    {
      "type" : "Feature",
      "id" : 44,
      "geometry" : {
        "type" : "Point",
        "coordinates" : [
          38.820924663136779,
          8.9994653368632225
        ]
      },
      "properties" : {
        "FID" : 44,
        "stop_name" : "ALEMAYA"
      }
    },
    {
      "type" : "Feature",
      "id" : 45,
      "geometry" : {
        "type" : "Point",
        "coordinates" : [
          38.819689382991506,
          9.0005701527444337
        ]
      },
      "properties" : {
        "FID" : 45,
        "stop_name" : "ALEMEYA"
      }
    },
    {
      "type" : "Feature",
      "id" : 46,
      "geometry" : {
        "type" : "Point",
        "coordinates" : [
          38.810000000000002,
          9.0048600000000008
        ]
      },
      "properties" : {
        "FID" : 46,
        "stop_name" : "CONDOMINIUM"
      }
    },
    {
      "type" : "Feature",
      "id" : 47,
      "geometry" : {
        "type" : "Point",
        "coordinates" : [
          38.805685990652911,
          9.0072646990143621
        ]
      },
      "properties" : {
        "FID" : 47,
        "stop_name" : "ANBESSA"
      }
    },
    {
      "type" : "Feature",
      "id" : 48,
      "geometry" : {
        "type" : "Point",
        "coordinates" : [
          38.80189,
          9.0179799999999997
        ]
      },
      "properties" : {
        "FID" : 48,
        "stop_name" : "MEGENAGNA"
      }
    },
    {
      "type" : "Feature",
      "id" : 49,
      "geometry" : {
        "type" : "Point",
        "coordinates" : [
          38.698267815011725,
          8.9831140033734194
        ]
      },
      "properties" : {
        "FID" : 49,
        "stop_name" : "AYER TENA"
      }
    },
    {
      "type" : "Feature",
      "id" : 50,
      "geometry" : {
        "type" : "Point",
        "coordinates" : [
          38.732741725009532,
          9.0196380187666776
        ]
      },
      "properties" : {
        "FID" : 50,
        "stop_name" : "ABINET"
      }
    },
    {
      "type" : "Feature",
      "id" : 51,
      "geometry" : {
        "type" : "Point",
        "coordinates" : [
          38.733172404189958,
          9.0279980885474238
        ]
      },
      "properties" : {
        "FID" : 51,
        "stop_name" : "SEBATEGA"
      }
    },
    {
      "type" : "Feature",
      "id" : 52,
      "geometry" : {
        "type" : "Point",
        "coordinates" : [
          38.732401166695062,
          9.0317912497870019
        ]
      },
      "properties" : {
        "FID" : 52,
        "stop_name" : "AUTOBIS TERA"
      }
    },
    {
      "type" : "Feature",
      "id" : 53,
      "geometry" : {
        "type" : "Point",
        "coordinates" : [
          38.795565201865912,
          9.0177441253316779
        ]
      },
      "properties" : {
        "FID" : 53,
        "stop_name" : "LEM HOTEL"
      }
    },
    {
      "type" : "Feature",
      "id" : 54,
      "geometry" : {
        "type" : "Point",
        "coordinates" : [
          38.789668178677651,
          9.0162311181563801
        ]
      },
      "properties" : {
        "FID" : 54,
        "stop_name" : "HAYA HULET"
      }
    },
    {
      "type" : "Feature",
      "id" : 55,
      "geometry" : {
        "type" : "Point",
        "coordinates" : [
          38.782446120817518,
          9.0145531733430673
        ]
      },
      "properties" : {
        "FID" : 55,
        "stop_name" : "ZERIHUN"
      }
    },
    {
      "type" : "Feature",
      "id" : 56,
      "geometry" : {
        "type" : "Point",
        "coordinates" : [
          38.76950033489112,
          9.0102330460100521
        ]
      },
      "properties" : {
        "FID" : 56,
        "stop_name" : "BANBIS"
      }
    },
    {
      "type" : "Feature",
      "id" : 57,
      "geometry" : {
        "type" : "Point",
        "coordinates" : [
          38.757002779366616,
          9.0120071139768569
        ]
      },
      "properties" : {
        "FID" : 57,
        "stop_name" : "STADIUM"
      }
    },
    {
      "type" : "Feature",
      "id" : 58,
      "geometry" : {
        "type" : "Point",
        "coordinates" : [
          38.732010000000002,
          9.0349699999999995
        ]
      },
      "properties" : {
        "FID" : 58,
        "stop_name" : "ATOBIS TERA"
      }
    },
    {
      "type" : "Feature",
      "id" : 59,
      "geometry" : {
        "type" : "Point",
        "coordinates" : [
          38.732303961318955,
          9.0412885936024754
        ]
      },
      "properties" : {
        "FID" : 59,
        "stop_name" : "MIKALE"
      }
    },
    {
      "type" : "Feature",
      "id" : 60,
      "geometry" : {
        "type" : "Point",
        "coordinates" : [
          38.730212696282138,
          9.0462878393195041
        ]
      },
      "properties" : {
        "FID" : 60,
        "stop_name" : "PASTOR"
      }
    },
    {
      "type" : "Feature",
      "id" : 61,
      "geometry" : {
        "type" : "Point",
        "coordinates" : [
          38.722857131677024,
          9.0511542918125318
        ]
      },
      "properties" : {
        "FID" : 61,
        "stop_name" : "MEDANIALEM"
      }
    },
    {
      "type" : "Feature",
      "id" : 62,
      "geometry" : {
        "type" : "Point",
        "coordinates" : [
          38.713811530838576,
          9.055444675738114
        ]
      },
      "properties" : {
        "FID" : 62,
        "stop_name" : "WINGET"
      }
    },
    {
      "type" : "Feature",
      "id" : 63,
      "geometry" : {
        "type" : "Point",
        "coordinates" : [
          38.701016688597051,
          9.0616828761421786
        ]
      },
      "properties" : {
        "FID" : 63,
        "stop_name" : "CHERETA"
      }
    },
    {
      "type" : "Feature",
      "id" : 64,
      "geometry" : {
        "type" : "Point",
        "coordinates" : [
          38.692285843814808,
          9.0652966002276649
        ]
      },
      "properties" : {
        "FID" : 64,
        "stop_name" : "ASKO"
      }
    },
    {
      "type" : "Feature",
      "id" : 65,
      "geometry" : {
        "type" : "Point",
        "coordinates" : [
          38.688979481815608,
          9.0714120727375587
        ]
      },
      "properties" : {
        "FID" : 65,
        "stop_name" : "SANSUSI"
      }
    },
    {
      "type" : "Feature",
      "id" : 66,
      "geometry" : {
        "type" : "Point",
        "coordinates" : [
          38.736980387664431,
          9.0716605208435013
        ]
      },
      "properties" : {
        "FID" : 66,
        "stop_name" : "DEL BER"
      }
    },
    {
      "type" : "Feature",
      "id" : 67,
      "geometry" : {
        "type" : "Point",
        "coordinates" : [
          38.73544563116247,
          9.0615208587481089
        ]
      },
      "properties" : {
        "FID" : 67,
        "stop_name" : "KELEBAT"
      }
    },
    {
      "type" : "Feature",
      "id" : 68,
      "geometry" : {
        "type" : "Point",
        "coordinates" : [
          38.73754590109521,
          9.0595656195566736
        ]
      },
      "properties" : {
        "FID" : 68,
        "stop_name" : "ADISU GEBEYA"
      }
    },
    {
      "type" : "Feature",
      "id" : 69,
      "geometry" : {
        "type" : "Point",
        "coordinates" : [
          38.741151790182506,
          9.0558963030697122
        ]
      },
      "properties" : {
        "FID" : 69,
        "stop_name" : "DEL BER SCHOOL"
      }
    },
    {
      "type" : "Feature",
      "id" : 70,
      "geometry" : {
        "type" : "Point",
        "coordinates" : [
          38.751988828023585,
          9.037953359587064
        ]
      },
      "properties" : {
        "FID" : 70,
        "stop_name" : "ST GIORGIS"
      }
    },
    {
      "type" : "Feature",
      "id" : 71,
      "geometry" : {
        "type" : "Point",
        "coordinates" : [
          38.753544070354309,
          9.0335877889370728
        ]
      },
      "properties" : {
        "FID" : 71,
        "stop_name" : "PIASSA"
      }
    },
    {
      "type" : "Feature",
      "id" : 72,
      "geometry" : {
        "type" : "Point",
        "coordinates" : [
          38.737364118362471,
          9.0481109427314177
        ]
      },
      "properties" : {
        "FID" : 72,
        "stop_name" : "ENKULAL FABRICA"
      }
    },
    {
      "type" : "Feature",
      "id" : 73,
      "geometry" : {
        "type" : "Point",
        "coordinates" : [
          38.737679603409539,
          9.0485389358854782
        ]
      },
      "properties" : {
        "FID" : 73,
        "stop_name" : "ENQULAL FABRICA"
      }
    },
    {
      "type" : "Feature",
      "id" : 74,
      "geometry" : {
        "type" : "Point",
        "coordinates" : [
          38.742176784916524,
          9.0472352695611615
        ]
      },
      "properties" : {
        "FID" : 74,
        "stop_name" : "RAS DESTA"
      }
    },
    {
      "type" : "Feature",
      "id" : 75,
      "geometry" : {
        "type" : "Point",
        "coordinates" : [
          38.745903706410203,
          9.042482240622066
        ]
      },
      "properties" : {
        "FID" : 75,
        "stop_name" : "KIDUS YOHANNES"
      }
    },
    {
      "type" : "Feature",
      "id" : 76,
      "geometry" : {
        "type" : "Point",
        "coordinates" : [
          38.74936709445862,
          9.0359326357372289
        ]
      },
      "properties" : {
        "FID" : 76,
        "stop_name" : "ABUNE PETROS"
      }
    },
    {
      "type" : "Feature",
      "id" : 77,
      "geometry" : {
        "type" : "Point",
        "coordinates" : [
          38.75168701751705,
          9.0358044299400717
        ]
      },
      "properties" : {
        "FID" : 77,
        "stop_name" : "KIDUS GIORGIS"
      }
    },
    {
      "type" : "Feature",
      "id" : 78,
      "geometry" : {
        "type" : "Point",
        "coordinates" : [
          38.748810769353447,
          9.0369577744264884
        ]
      },
      "properties" : {
        "FID" : 78,
        "stop_name" : "ABUNE PETROS SQUARE"
      }
    },
    {
      "type" : "Feature",
      "id" : 79,
      "geometry" : {
        "type" : "Point",
        "coordinates" : [
          38.677879640017068,
          9.0007120065701258
        ]
      },
      "properties" : {
        "FID" : 79,
        "stop_name" : "ALEM BANK"
      }
    },
    {
      "type" : "Feature",
      "id" : 80,
      "geometry" : {
        "type" : "Point",
        "coordinates" : [
          38.694147257498457,
          9.0041805350149975
        ]
      },
      "properties" : {
        "FID" : 80,
        "stop_name" : "BETHEL"
      }
    },
    {
      "type" : "Feature",
      "id" : 81,
      "geometry" : {
        "type" : "Point",
        "coordinates" : [
          38.764013018780268,
          8.9578053092767291
        ]
      },
      "properties" : {
        "FID" : 81,
        "stop_name" : "ADEY ABEBA"
      }
    },
    {
      "type" : "Feature",
      "id" : 82,
      "geometry" : {
        "type" : "Point",
        "coordinates" : [
          38.764835334189982,
          8.9418548085568368
        ]
      },
      "properties" : {
        "FID" : 82,
        "stop_name" : "BINIYAM BUILDING"
      }
    },
    {
      "type" : "Feature",
      "id" : 83,
      "geometry" : {
        "type" : "Point",
        "coordinates" : [
          38.767949790290565,
          8.9536369120484096
        ]
      },
      "properties" : {
        "FID" : 83,
        "stop_name" : "ADDIS GOMA"
      }
    },
    {
      "type" : "Feature",
      "id" : 84,
      "geometry" : {
        "type" : "Point",
        "coordinates" : [
          38.767374768323393,
          8.9605444145135156
        ]
      },
      "properties" : {
        "FID" : 84,
        "stop_name" : "ADDIS SEFER"
      }
    },
    {
      "type" : "Feature",
      "id" : 85,
      "geometry" : {
        "type" : "Point",
        "coordinates" : [
          38.775734725852374,
          9.0267467810485655
        ]
      },
      "properties" : {
        "FID" : 85,
        "stop_name" : "AWARE"
      }
    },
    {
      "type" : "Feature",
      "id" : 86,
      "geometry" : {
        "type" : "Point",
        "coordinates" : [
          38.781701344169463,
          9.0234422587808503
        ]
      },
      "properties" : {
        "FID" : 86,
        "stop_name" : "AWARE SQUARE"
      }
    },
    {
      "type" : "Feature",
      "id" : 87,
      "geometry" : {
        "type" : "Point",
        "coordinates" : [
          38.696701936894563,
          8.9834262067269801
        ]
      },
      "properties" : {
        "FID" : 87,
        "stop_name" : "AYER TENA TERMINAL"
      }
    },
    {
      "type" : "Feature",
      "id" : 88,
      "geometry" : {
        "type" : "Point",
        "coordinates" : [
          38.704892580446014,
          8.9850777712865959
        ]
      },
      "properties" : {
        "FID" : 88,
        "stop_name" : "AYER TENA BRIDGE"
      }
    },
    {
      "type" : "Feature",
      "id" : 89,
      "geometry" : {
        "type" : "Point",
        "coordinates" : [
          38.718945591012357,
          9.0061686004687633
        ]
      },
      "properties" : {
        "FID" : 89,
        "stop_name" : "AUGUSTA"
      }
    },
    {
      "type" : "Feature",
      "id" : 90,
      "geometry" : {
        "type" : "Point",
        "coordinates" : [
          38.760813970387957,
          9.0680686810947062
        ]
      },
      "properties" : {
        "FID" : 90,
        "stop_name" : "ANDEGNA STATION"
      }
    },
    {
      "type" : "Feature",
      "id" : 91,
      "geometry" : {
        "type" : "Point",
        "coordinates" : [
          38.75967921111706,
          9.0720425254694543
        ]
      },
      "properties" : {
        "FID" : 91,
        "stop_name" : "02"
      }
    },
    {
      "type" : "Feature",
      "id" : 92,
      "geometry" : {
        "type" : "Point",
        "coordinates" : [
          38.733572500000001,
          9.0245852000000006
        ]
      },
      "properties" : {
        "FID" : 92,
        "stop_name" : "ADDIS KETEMA"
      }
    },
    {
      "type" : "Feature",
      "id" : 93,
      "geometry" : {
        "type" : "Point",
        "coordinates" : [
          38.786911147489533,
          8.8764199217582291
        ]
      },
      "properties" : {
        "FID" : 93,
        "stop_name" : "AKAKI"
      }
    },
    {
      "type" : "Feature",
      "id" : 94,
      "geometry" : {
        "type" : "Point",
        "coordinates" : [
          38.732349999999997,
          9.0331899999999994
        ]
      },
      "properties" : {
        "FID" : 94,
        "stop_name" : "AWTOBIS TERA"
      }
    },
    {
      "type" : "Feature",
      "id" : 95,
      "geometry" : {
        "type" : "Point",
        "coordinates" : [
          38.761400414304312,
          8.9171046674383856
        ]
      },
      "properties" : {
        "FID" : 95,
        "stop_name" : "A.A FOME AND PLASTIC FABRICA"
      }
    },
    {
      "type" : "Feature",
      "id" : 96,
      "geometry" : {
        "type" : "Point",
        "coordinates" : [
          38.731929999999998,
          9.0404700000000009
        ]
      },
      "properties" : {
        "FID" : 96,
        "stop_name" : "ADDISU MICHEAL"
      }
    },
    {
      "type" : "Feature",
      "id" : 97,
      "geometry" : {
        "type" : "Point",
        "coordinates" : [
          38.755360998218556,
          9.0453606267050759
        ]
      },
      "properties" : {
        "FID" : 97,
        "stop_name" : "AFINCHO BER"
      }
    },
    {
      "type" : "Feature",
      "id" : 98,
      "geometry" : {
        "type" : "Point",
        "coordinates" : [
          38.7416015842999,
          9.0334736896125634
        ]
      },
      "properties" : {
        "FID" : 98,
        "stop_name" : "ANWAR MOSQUE"
      }
    },
    {
      "type" : "Feature",
      "id" : 99,
      "geometry" : {
        "type" : "Point",
        "coordinates" : [
          38.720190000000002,
          9.0631800000000009
        ]
      },
      "properties" : {
        "FID" : 99,
        "stop_name" : "ANBESSA GARAGE"
      }
    },
    {
      "type" : "Feature",
      "id" : 100,
      "geometry" : {
        "type" : "Point",
        "coordinates" : [
          38.789430558024726,
          9.0284462128275216
        ]
      },
      "properties" : {
        "FID" : 100,
        "stop_name" : "ABEBE SUK"
      }
    },
    {
      "type" : "Feature",
      "id" : 101,
      "geometry" : {
        "type" : "Point",
        "coordinates" : [
          38.746821509748919,
          9.0042948641907348
        ]
      },
      "properties" : {
        "FID" : 101,
        "stop_name" : "AROUND HIBRET BANK"
      }
    },
    {
      "type" : "Feature",
      "id" : 102,
      "geometry" : {
        "type" : "Point",
        "coordinates" : [
          38.713554120775555,
          8.9722530583782056
        ]
      },
      "properties" : {
        "FID" : 102,
        "stop_name" : "ADDIS ABABA KOSHE"
      }
    },
    {
      "type" : "Feature",
      "id" : 103,
      "geometry" : {
        "type" : "Point",
        "coordinates" : [
          38.719230000000003,
          8.9832000000000001
        ]
      },
      "properties" : {
        "FID" : 103,
        "stop_name" : "BISRATE GEBRIEL"
      }
    },
    {
      "type" : "Feature",
      "id" : 104,
      "geometry" : {
        "type" : "Point",
        "coordinates" : [
          38.712206460766367,
          9.0334924264501986
        ]
      },
      "properties" : {
        "FID" : 104,
        "stop_name" : "18 MAZORIYA"
      }
    },
    {
      "type" : "Feature",
      "id" : 105,
      "geometry" : {
        "type" : "Point",
        "coordinates" : [
          38.712415859027089,
          9.0415803216114288
        ]
      },
      "properties" : {
        "FID" : 105,
        "stop_name" : "ATENA TERA"
      }
    },
    {
      "type" : "Feature",
      "id" : 106,
      "geometry" : {
        "type" : "Point",
        "coordinates" : [
          38.707997902052234,
          9.051432624267731
        ]
      },
      "properties" : {
        "FID" : 106,
        "stop_name" : "BASHWAM SCHOOL"
      }
    },
    {
      "type" : "Feature",
      "id" : 107,
      "geometry" : {
        "type" : "Point",
        "coordinates" : [
          38.694038086371606,
          9.0584852920367336
        ]
      },
      "properties" : {
        "FID" : 107,
        "stop_name" : "ABUYE"
      }
    },
    {
      "type" : "Feature",
      "id" : 108,
      "geometry" : {
        "type" : "Point",
        "coordinates" : [
          38.69239256688892,
          9.0614091095101692
        ]
      },
      "properties" : {
        "FID" : 108,
        "stop_name" : "ASKO GEBEYA"
      }
    },
    {
      "type" : "Feature",
      "id" : 109,
      "geometry" : {
        "type" : "Point",
        "coordinates" : [
          38.712008422457536,
          9.1079225737085761
        ]
      },
      "properties" : {
        "FID" : 109,
        "stop_name" : "ASHEWA MEDA"
      }
    },
    {
      "type" : "Feature",
      "id" : 110,
      "geometry" : {
        "type" : "Point",
        "coordinates" : [
          38.76217464121391,
          9.0402605281194841
        ]
      },
      "properties" : {
        "FID" : 110,
        "stop_name" : "5 KILO"
      }
    },
    {
      "type" : "Feature",
      "id" : 111,
      "geometry" : {
        "type" : "Point",
        "coordinates" : [
          38.761220083809199,
          9.029477310037537
        ]
      },
      "properties" : {
        "FID" : 111,
        "stop_name" : "4 KILO CONDOMINIUM"
      }
    },
    {
      "type" : "Feature",
      "id" : 112,
      "geometry" : {
        "type" : "Point",
        "coordinates" : [
          38.762130472857315,
          9.0600382267851653
        ]
      },
      "properties" : {
        "FID" : 112,
        "stop_name" : "AMERICAN EMBASSY"
      }
    },
    {
      "type" : "Feature",
      "id" : 113,
      "geometry" : {
        "type" : "Point",
        "coordinates" : [
          38.767987142006731,
          8.9855700979074342
        ]
      },
      "properties" : {
        "FID" : 113,
        "stop_name" : "AMSALE BUILDING"
      }
    },
    {
      "type" : "Feature",
      "id" : 114,
      "geometry" : {
        "type" : "Point",
        "coordinates" : [
          38.76254000153881,
          9.0267610335682384
        ]
      },
      "properties" : {
        "FID" : 114,
        "stop_name" : "BETE MENGEST"
      }
    },
    {
      "type" : "Feature",
      "id" : 115,
      "geometry" : {
        "type" : "Point",
        "coordinates" : [
          38.763554821491894,
          9.0214247773069864
        ]
      },
      "properties" : {
        "FID" : 115,
        "stop_name" : "BETEMENGIST"
      }
    },
    {
      "type" : "Feature",
      "id" : 116,
      "geometry" : {
        "type" : "Point",
        "coordinates" : [
          38.763034901539662,
          9.0357620320764873
        ]
      },
      "properties" : {
        "FID" : 116,
        "stop_name" : "4 KILO MINILIK SCHOOL"
      }
    },
    {
      "type" : "Feature",
      "id" : 117,
      "geometry" : {
        "type" : "Point",
        "coordinates" : [
          38.730115946199874,
          9.0633336180858368
        ]
      },
      "properties" : {
        "FID" : 117,
        "stop_name" : "BERE TERA"
      }
    },
    {
      "type" : "Feature",
      "id" : 118,
      "geometry" : {
        "type" : "Point",
        "coordinates" : [
          38.73316538441361,
          9.0625247210564037
        ]
      },
      "properties" : {
        "FID" : 118,
        "stop_name" : "ADDISU GEBEYA"
      }
    },
    {
      "type" : "Feature",
      "id" : 119,
      "geometry" : {
        "type" : "Point",
        "coordinates" : [
          38.770806707288862,
          8.9590058718439565
        ]
      },
      "properties" : {
        "FID" : 119,
        "stop_name" : "ABISINIYA COLLEGE"
      }
    },
    {
      "type" : "Feature",
      "id" : 120,
      "geometry" : {
        "type" : "Point",
        "coordinates" : [
          38.752667272383412,
          9.0165312364691239
        ]
      },
      "properties" : {
        "FID" : 120,
        "stop_name" : "BIHERAWI"
      }
    },
    {
      "type" : "Feature",
      "id" : 121,
      "geometry" : {
        "type" : "Point",
        "coordinates" : [
          38.766771059622315,
          8.9968888850548563
        ]
      },
      "properties" : {
        "FID" : 121,
        "stop_name" : "AXUM PHARMACY"
      }
    },
    {
      "type" : "Feature",
      "id" : 122,
      "geometry" : {
        "type" : "Point",
        "coordinates" : [
          38.756020930782697,
          8.9619465819455666
        ]
      },
      "properties" : {
        "FID" : 122,
        "stop_name" : "BIHERE TSIGE"
      }
    },
    {
      "type" : "Feature",
      "id" : 123,
      "geometry" : {
        "type" : "Point",
        "coordinates" : [
          38.718351280753858,
          9.0364580653859949
        ]
      },
      "properties" : {
        "FID" : 123,
        "stop_name" : "ATENA TERA CHECK"
      }
    },
    {
      "type" : "Feature",
      "id" : 124,
      "geometry" : {
        "type" : "Point",
        "coordinates" : [
          38.740651553154812,
          9.0266692143338165
        ]
      },
      "properties" : {
        "FID" : 124,
        "stop_name" : "BERBERE BERENDA"
      }
    },
    {
      "type" : "Feature",
      "id" : 125,
      "geometry" : {
        "type" : "Point",
        "coordinates" : [
          38.693231028532502,
          9.000797426887214
        ]
      },
      "properties" : {
        "FID" : 125,
        "stop_name" : "BEG TERA"
      }
    },
    {
      "type" : "Feature",
      "id" : 126,
      "geometry" : {
        "type" : "Point",
        "coordinates" : [
          38.710617176135244,
          9.0569585605573319
        ]
      },
      "properties" : {
        "FID" : 126,
        "stop_name" : "AWELIYA"
      }
    },
    {
      "type" : "Feature",
      "id" : 127,
      "geometry" : {
        "type" : "Point",
        "coordinates" : [
          38.759348319619853,
          9.0349801634640432
        ]
      },
      "properties" : {
        "FID" : 127,
        "stop_name" : "4 KILO"
      }
    },
    {
      "type" : "Feature",
      "id" : 128,
      "geometry" : {
        "type" : "Point",
        "coordinates" : [
          38.784637439934535,
          9.0283640569934747
        ]
      },
      "properties" : {
        "FID" : 128,
        "stop_name" : "BALDERAS"
      }
    },
    {
      "type" : "Feature",
      "id" : 129,
      "geometry" : {
        "type" : "Point",
        "coordinates" : [
          38.880041992008422,
          9.000868536258654
        ]
      },
      "properties" : {
        "FID" : 129,
        "stop_name" : "BESHALE"
      }
    },
    {
      "type" : "Feature",
      "id" : 130,
      "geometry" : {
        "type" : "Point",
        "coordinates" : [
          38.88374482217661,
          8.99835021270653
        ]
      },
      "properties" : {
        "FID" : 130,
        "stop_name" : "40/60 BER"
      }
    },
    {
      "type" : "Feature",
      "id" : 131,
      "geometry" : {
        "type" : "Point",
        "coordinates" : [
          38.888173234472553,
          8.9753495130335796
        ]
      },
      "properties" : {
        "FID" : 131,
        "stop_name" : "15"
      }
    },
    {
      "type" : "Feature",
      "id" : 132,
      "geometry" : {
        "type" : "Point",
        "coordinates" : [
          38.788701286655296,
          8.8680207274402534
        ]
      },
      "properties" : {
        "FID" : 132,
        "stop_name" : "AKAKI NIGD"
      }
    },
    {
      "type" : "Feature",
      "id" : 133,
      "geometry" : {
        "type" : "Point",
        "coordinates" : [
          38.785035960597234,
          8.8790471991468092
        ]
      },
      "properties" : {
        "FID" : 133,
        "stop_name" : "BESEKA"
      }
    },
    {
      "type" : "Feature",
      "id" : 134,
      "geometry" : {
        "type" : "Point",
        "coordinates" : [
          38.739110026520365,
          8.9699316079240354
        ]
      },
      "properties" : {
        "FID" : 134,
        "stop_name" : "ABDU BUILDING"
      }
    },
    {
      "type" : "Feature",
      "id" : 135,
      "geometry" : {
        "type" : "Point",
        "coordinates" : [
          38.778885130274425,
          8.8890927074013888
        ]
      },
      "properties" : {
        "FID" : 135,
        "stop_name" : "AKAKI STADIUM"
      }
    },
    {
      "type" : "Feature",
      "id" : 136,
      "geometry" : {
        "type" : "Point",
        "coordinates" : [
          38.718647318955881,
          9.0927893093509553
        ]
      },
      "properties" : {
        "FID" : 136,
        "stop_name" : "10 KILO"
      }
    },
    {
      "type" : "Feature",
      "id" : 137,
      "geometry" : {
        "type" : "Point",
        "coordinates" : [
          38.750390564369731,
          9.0412124333784671
        ]
      },
      "properties" : {
        "FID" : 137,
        "stop_name" : "3RD POLICE STATION"
      }
    },
    {
      "type" : "Feature",
      "id" : 138,
      "geometry" : {
        "type" : "Point",
        "coordinates" : [
          38.746744047513175,
          9.0346780059391474
        ]
      },
      "properties" : {
        "FID" : 138,
        "stop_name" : "ATIKILT TERA"
      }
    },
    {
      "type" : "Feature",
      "id" : 139,
      "geometry" : {
        "type" : "Point",
        "coordinates" : [
          38.762226673431954,
          9.0396912575897996
        ]
      },
      "properties" : {
        "FID" : 139,
        "stop_name" : "5 KILLO"
      }
    },
    {
      "type" : "Feature",
      "id" : 140,
      "geometry" : {
        "type" : "Point",
        "coordinates" : [
          38.798914130096833,
          8.8665581984424389
        ]
      },
      "properties" : {
        "FID" : 140,
        "stop_name" : "YESHI TOTAL"
      }
    },
    {
      "type" : "Feature",
      "id" : 141,
      "geometry" : {
        "type" : "Point",
        "coordinates" : [
          38.796535272904435,
          8.8713635705691747
        ]
      },
      "properties" : {
        "FID" : 141,
        "stop_name" : "06 KEBELE"
      }
    },
    {
      "type" : "Feature",
      "id" : 142,
      "geometry" : {
        "type" : "Point",
        "coordinates" : [
          38.779527719303402,
          8.8796207531630387
        ]
      },
      "properties" : {
        "FID" : 142,
        "stop_name" : "09 KEBELE"
      }
    },
    {
      "type" : "Feature",
      "id" : 143,
      "geometry" : {
        "type" : "Point",
        "coordinates" : [
          38.698506132137375,
          9.0638938679065522
        ]
      },
      "properties" : {
        "FID" : 143,
        "stop_name" : "ASKO POLICE STATION"
      }
    },
    {
      "type" : "Feature",
      "id" : 144,
      "geometry" : {
        "type" : "Point",
        "coordinates" : [
          38.765324790682271,
          9.0450644431295402
        ]
      },
      "properties" : {
        "FID" : 144,
        "stop_name" : "6 KILO TELE"
      }
    },
    {
      "type" : "Feature",
      "id" : 145,
      "geometry" : {
        "type" : "Point",
        "coordinates" : [
          38.788667418894164,
          8.8701362293981045
        ]
      },
      "properties" : {
        "FID" : 145,
        "stop_name" : "AKAKI GEBEYA"
      }
    },
    {
      "type" : "Feature",
      "id" : 146,
      "geometry" : {
        "type" : "Point",
        "coordinates" : [
          38.784307404767006,
          8.8854495255093902
        ]
      },
      "properties" : {
        "FID" : 146,
        "stop_name" : "08"
      }
    },
    {
      "type" : "Feature",
      "id" : 147,
      "geometry" : {
        "type" : "Point",
        "coordinates" : [
          38.793952294779025,
          8.9894000576216229
        ]
      },
      "properties" : {
        "FID" : 147,
        "stop_name" : "BOLE BRASS"
      }
    },
    {
      "type" : "Feature",
      "id" : 148,
      "geometry" : {
        "type" : "Point",
        "coordinates" : [
          38.804267742428173,
          9.0122452511014064
        ]
      },
      "properties" : {
        "FID" : 148,
        "stop_name" : "AMICHE"
      }
    },
    {
      "type" : "Feature",
      "id" : 149,
      "geometry" : {
        "type" : "Point",
        "coordinates" : [
          38.788285341820121,
          9.0097686327389486
        ]
      },
      "properties" : {
        "FID" : 149,
        "stop_name" : "AWRARIS"
      }
    },
    {
      "type" : "Feature",
      "id" : 150,
      "geometry" : {
        "type" : "Point",
        "coordinates" : [
          38.672254029591372,
          9.028551571968773
        ]
      },
      "properties" : {
        "FID" : 150,
        "stop_name" : "ANFO"
      }
    },
    {
      "type" : "Feature",
      "id" : 151,
      "geometry" : {
        "type" : "Point",
        "coordinates" : [
          38.734922757031292,
          9.0344418547720569
        ]
      },
      "properties" : {
        "FID" : 151,
        "stop_name" : "AWTOBIS TERA TELE"
      }
    },
    {
      "type" : "Feature",
      "id" : 152,
      "geometry" : {
        "type" : "Point",
        "coordinates" : [
          38.734406831900479,
          8.9464140154103955
        ]
      },
      "properties" : {
        "FID" : 152,
        "stop_name" : "LEBU MEBRAT HAIL"
      }
    },
    {
      "type" : "Feature",
      "id" : 153,
      "geometry" : {
        "type" : "Point",
        "coordinates" : [
          38.772351250331099,
          9.0159312495755106
        ]
      },
      "properties" : {
        "FID" : 153,
        "stop_name" : "KAZANCHIS TOTAL"
      }
    },
    {
      "type" : "Feature",
      "id" : 154,
      "geometry" : {
        "type" : "Point",
        "coordinates" : [
          38.773355905993064,
          9.0169796942236413
        ]
      },
      "properties" : {
        "FID" : 154,
        "stop_name" : "KAZANCHIS CONDOMINIUM"
      }
    },
    {
      "type" : "Feature",
      "id" : 155,
      "geometry" : {
        "type" : "Point",
        "coordinates" : [
          38.662439999999997,
          8.9319199999999981
        ]
      },
      "properties" : {
        "FID" : 155,
        "stop_name" : "KENTERI"
      }
    },
    {
      "type" : "Feature",
      "id" : 156,
      "geometry" : {
        "type" : "Point",
        "coordinates" : [
          38.830016474243003,
          8.8941511094900694
        ]
      },
      "properties" : {
        "FID" : 156,
        "stop_name" : "KOYE FICHE"
      }
    },
    {
      "type" : "Feature",
      "id" : 157,
      "geometry" : {
        "type" : "Point",
        "coordinates" : [
          38.771819237764852,
          8.9975715109298395
        ]
      },
      "properties" : {
        "FID" : 157,
        "stop_name" : "MEGA"
      }
    },
    {
      "type" : "Feature",
      "id" : 158,
      "geometry" : {
        "type" : "Point",
        "coordinates" : [
          38.815624565690293,
          8.8996828035923521
        ]
      },
      "properties" : {
        "FID" : 158,
        "stop_name" : "KORE ADEBABAY"
      }
    },
    {
      "type" : "Feature",
      "id" : 159,
      "geometry" : {
        "type" : "Point",
        "coordinates" : [
          38.810224630018404,
          8.8976869873680187
        ]
      },
      "properties" : {
        "FID" : 159,
        "stop_name" : "KILINTO"
      }
    },
    {
      "type" : "Feature",
      "id" : 160,
      "geometry" : {
        "type" : "Point",
        "coordinates" : [
          38.718451907524475,
          8.997097337627352
        ]
      },
      "properties" : {
        "FID" : 160,
        "stop_name" : "KOLFE GEBIWOCH"
      }
    },
    {
      "type" : "Feature",
      "id" : 161,
      "geometry" : {
        "type" : "Point",
        "coordinates" : [
          38.801268195318208,
          8.8913280474273275
        ]
      },
      "properties" : {
        "FID" : 161,
        "stop_name" : "MAREMIYA BET"
      }
    },
    {
      "type" : "Feature",
      "id" : 162,
      "geometry" : {
        "type" : "Point",
        "coordinates" : [
          38.76698993361245,
          8.9625686791742591
        ]
      },
      "properties" : {
        "FID" : 162,
        "stop_name" : "KADISKO"
      }
    },
    {
      "type" : "Feature",
      "id" : 163,
      "geometry" : {
        "type" : "Point",
        "coordinates" : [
          38.764421844612265,
          8.9094543885283848
        ]
      },
      "properties" : {
        "FID" : 163,
        "stop_name" : "KALITI GEBREAL"
      }
    },
    {
      "type" : "Feature",
      "id" : 164,
      "geometry" : {
        "type" : "Point",
        "coordinates" : [
          38.76464,
          8.9344699999999992
        ]
      },
      "properties" : {
        "FID" : 164,
        "stop_name" : "MASELTEGNA"
      }
    },
    {
      "type" : "Feature",
      "id" : 165,
      "geometry" : {
        "type" : "Point",
        "coordinates" : [
          38.809979368929895,
          8.8495250205155873
        ]
      },
      "properties" : {
        "FID" : 165,
        "stop_name" : "KALITI GUMURUK"
      }
    },
    {
      "type" : "Feature",
      "id" : 166,
      "geometry" : {
        "type" : "Point",
        "coordinates" : [
          38.738070492862882,
          9.016244930018452
        ]
      },
      "properties" : {
        "FID" : 166,
        "stop_name" : "LIDETA CONDOMINIUM"
      }
    },
    {
      "type" : "Feature",
      "id" : 167,
      "geometry" : {
        "type" : "Point",
        "coordinates" : [
          38.732695703656134,
          8.9484356290437859
        ]
      },
      "properties" : {
        "FID" : 167,
        "stop_name" : "MEBRAT HYLE"
      }
    },
    {
      "type" : "Feature",
      "id" : 168,
      "geometry" : {
        "type" : "Point",
        "coordinates" : [
          38.721231137011436,
          9.0522620235201749
        ]
      },
      "properties" : {
        "FID" : 168,
        "stop_name" : "MEDHANEALEM SCHOOL"
      }
    },
    {
      "type" : "Feature",
      "id" : 169,
      "geometry" : {
        "type" : "Point",
        "coordinates" : [
          38.69365911477329,
          8.9523812367726325
        ]
      },
      "properties" : {
        "FID" : 169,
        "stop_name" : "JEMO"
      }
    },
    {
      "type" : "Feature",
      "id" : 170,
      "geometry" : {
        "type" : "Point",
        "coordinates" : [
          38.696259599999998,
          8.9540757000000006
        ]
      },
      "properties" : {
        "FID" : 170,
        "stop_name" : "JEMO SQUARE"
      }
    },
    {
      "type" : "Feature",
      "id" : 171,
      "geometry" : {
        "type" : "Point",
        "coordinates" : [
          38.7467205084535,
          9.0052229644447497
        ]
      },
      "properties" : {
        "FID" : 171,
        "stop_name" : "LANDMARK G/HOSPITAL"
      }
    },
    {
      "type" : "Feature",
      "id" : 172,
      "geometry" : {
        "type" : "Point",
        "coordinates" : [
          38.801321033751393,
          9.0205375073710066
        ]
      },
      "properties" : {
        "FID" : 172,
        "stop_name" : "MEGENAGNA TERMINAL"
      }
    },
    {
      "type" : "Feature",
      "id" : 173,
      "geometry" : {
        "type" : "Point",
        "coordinates" : [
          38.788645592795817,
          8.9519932508961482
        ]
      },
      "properties" : {
        "FID" : 173,
        "stop_name" : "MARIAM MAZORIYA"
      }
    },
    {
      "type" : "Feature",
      "id" : 174,
      "geometry" : {
        "type" : "Point",
        "coordinates" : [
          38.754268022971864,
          9.0118468986865725
        ]
      },
      "properties" : {
        "FID" : 174,
        "stop_name" : "LEGEHAR"
      }
    },
    {
      "type" : "Feature",
      "id" : 175,
      "geometry" : {
        "type" : "Point",
        "coordinates" : [
          38.721926594352865,
          8.9778462147246874
        ]
      },
      "properties" : {
        "FID" : 175,
        "stop_name" : "KORE SQUARE"
      }
    },
    {
      "type" : "Feature",
      "id" : 176,
      "geometry" : {
        "type" : "Point",
        "coordinates" : [
          38.673519602851549,
          8.9666104660446813
        ]
      },
      "properties" : {
        "FID" : 176,
        "stop_name" : "MARIAM AKABABI"
      }
    },
    {
      "type" : "Feature",
      "id" : 177,
      "geometry" : {
        "type" : "Point",
        "coordinates" : [
          38.726841072475317,
          8.9927426964400343
        ]
      },
      "properties" : {
        "FID" : 177,
        "stop_name" : "LAFTO MALL"
      }
    },
    {
      "type" : "Feature",
      "id" : 178,
      "geometry" : {
        "type" : "Point",
        "coordinates" : [
          38.730289999999997,
          8.9970499999999998
        ]
      },
      "properties" : {
        "FID" : 178,
        "stop_name" : "KARLE SQUARE"
      }
    },
    {
      "type" : "Feature",
      "id" : 179,
      "geometry" : {
        "type" : "Point",
        "coordinates" : [
          38.737967648591777,
          9.0149310189752967
        ]
      },
      "properties" : {
        "FID" : 179,
        "stop_name" : "LIDETA COMDOMINIUM"
      }
    },
    {
      "type" : "Feature",
      "id" : 180,
      "geometry" : {
        "type" : "Point",
        "coordinates" : [
          38.696787682225754,
          9.0659646385106569
        ]
      },
      "properties" : {
        "FID" : 180,
        "stop_name" : "MARIYAM"
      }
    },
    {
      "type" : "Feature",
      "id" : 181,
      "geometry" : {
        "type" : "Point",
        "coordinates" : [
          38.731013470386095,
          8.9974237775310897
        ]
      },
      "properties" : {
        "FID" : 181,
        "stop_name" : "KARL SQUARE"
      }
    },
    {
      "type" : "Feature",
      "id" : 182,
      "geometry" : {
        "type" : "Point",
        "coordinates" : [
          38.743695021456858,
          9.1316371162846028
        ]
      },
      "properties" : {
        "FID" : 182,
        "stop_name" : "KIMBRE"
      }
    },
    {
      "type" : "Feature",
      "id" : 183,
      "geometry" : {
        "type" : "Point",
        "coordinates" : [
          38.771090264074559,
          8.8967497888903946
        ]
      },
      "properties" : {
        "FID" : 183,
        "stop_name" : "KALITY MENAHERIYA"
      }
    },
    {
      "type" : "Feature",
      "id" : 184,
      "geometry" : {
        "type" : "Point",
        "coordinates" : [
          38.764857058658471,
          8.908213914052002
        ]
      },
      "properties" : {
        "FID" : 184,
        "stop_name" : "KALITY GABRIEL"
      }
    },
    {
      "type" : "Feature",
      "id" : 185,
      "geometry" : {
        "type" : "Point",
        "coordinates" : [
          38.685228708730982,
          8.9948367689734745
        ]
      },
      "properties" : {
        "FID" : 185,
        "stop_name" : "LIDIYA"
      }
    },
    {
      "type" : "Feature",
      "id" : 186,
      "geometry" : {
        "type" : "Point",
        "coordinates" : [
          38.765967710165413,
          8.9907742654738847
        ]
      },
      "properties" : {
        "FID" : 186,
        "stop_name" : "KB"
      }
    },
    {
      "type" : "Feature",
      "id" : 187,
      "geometry" : {
        "type" : "Point",
        "coordinates" : [
          38.76654668783118,
          8.9937737540176048
        ]
      },
      "properties" : {
        "FID" : 187,
        "stop_name" : "KEBELE"
      }
    },
    {
      "type" : "Feature",
      "id" : 188,
      "geometry" : {
        "type" : "Point",
        "coordinates" : [
          38.689331394067239,
          8.9914074672171509
        ]
      },
      "properties" : {
        "FID" : 188,
        "stop_name" : "KIDANE MIHIRET"
      }
    },
    {
      "type" : "Feature",
      "id" : 189,
      "geometry" : {
        "type" : "Point",
        "coordinates" : [
          38.745055449114943,
          8.9359293598674991
        ]
      },
      "properties" : {
        "FID" : 189,
        "stop_name" : "LEBU MEBRAT HAYL"
      }
    },
    {
      "type" : "Feature",
      "id" : 190,
      "geometry" : {
        "type" : "Point",
        "coordinates" : [
          38.744329999999998,
          8.9474599999999995
        ]
      },
      "properties" : {
        "FID" : 190,
        "stop_name" : "LAFTO 54"
      }
    },
    {
      "type" : "Feature",
      "id" : 191,
      "geometry" : {
        "type" : "Point",
        "coordinates" : [
          38.775771393076141,
          9.0569427626702357
        ]
      },
      "properties" : {
        "FID" : 191,
        "stop_name" : "KENEAN"
      }
    },
    {
      "type" : "Feature",
      "id" : 192,
      "geometry" : {
        "type" : "Point",
        "coordinates" : [
          38.717518967282459,
          9.0554310306917642
        ]
      },
      "properties" : {
        "FID" : 192,
        "stop_name" : "MARBLES GARAGE"
      }
    },
    {
      "type" : "Feature",
      "id" : 193,
      "geometry" : {
        "type" : "Point",
        "coordinates" : [
          38.7714529,
          9.0152404000000015
        ]
      },
      "properties" : {
        "FID" : 193,
        "stop_name" : "KAZANCHIS HANAN"
      }
    },
    {
      "type" : "Feature",
      "id" : 194,
      "geometry" : {
        "type" : "Point",
        "coordinates" : [
          38.735216275048565,
          9.0193396484514299
        ]
      },
      "properties" : {
        "FID" : 194,
        "stop_name" : "JOS HANSEN"
      }
    },
    {
      "type" : "Feature",
      "id" : 195,
      "geometry" : {
        "type" : "Point",
        "coordinates" : [
          38.779001567071568,
          9.0348526268286289
        ]
      },
      "properties" : {
        "FID" : 195,
        "stop_name" : "KOKEBE TSEBAH"
      }
    },
    {
      "type" : "Feature",
      "id" : 196,
      "geometry" : {
        "type" : "Point",
        "coordinates" : [
          38.708771014897287,
          9.0332957308407718
        ]
      },
      "properties" : {
        "FID" : 196,
        "stop_name" : "LUKANDA"
      }
    },
    {
      "type" : "Feature",
      "id" : 197,
      "geometry" : {
        "type" : "Point",
        "coordinates" : [
          38.884699854925913,
          8.9805232814537934
        ]
      },
      "properties" : {
        "FID" : 197,
        "stop_name" : "MAZORIYA"
      }
    },
    {
      "type" : "Feature",
      "id" : 198,
      "geometry" : {
        "type" : "Point",
        "coordinates" : [
          38.832001305451321,
          8.8379449843170832
        ]
      },
      "properties" : {
        "FID" : 198,
        "stop_name" : "KADILA"
      }
    },
    {
      "type" : "Feature",
      "id" : 199,
      "geometry" : {
        "type" : "Point",
        "coordinates" : [
          38.745671642661108,
          9.0343938237126942
        ]
      },
      "properties" : {
        "FID" : 199,
        "stop_name" : "KHALIFA"
      }
    },
    {
      "type" : "Feature",
      "id" : 200,
      "geometry" : {
        "type" : "Point",
        "coordinates" : [
          38.760524757975958,
          8.9585493477271303
        ]
      },
      "properties" : {
        "FID" : 200,
        "stop_name" : "KEY MESKEL"
      }
    },
    {
      "type" : "Feature",
      "id" : 201,
      "geometry" : {
        "type" : "Point",
        "coordinates" : [
          38.733239208376141,
          9.1200075302065891
        ]
      },
      "properties" : {
        "FID" : 201,
        "stop_name" : "KIMBRA"
      }
    },
    {
      "type" : "Feature",
      "id" : 202,
      "geometry" : {
        "type" : "Point",
        "coordinates" : [
          38.75260662890544,
          9.0118456754809273
        ]
      },
      "properties" : {
        "FID" : 202,
        "stop_name" : "LALIBALA"
      }
    },
    {
      "type" : "Feature",
      "id" : 203,
      "geometry" : {
        "type" : "Point",
        "coordinates" : [
          38.750115441651126,
          9.0355744138099574
        ]
      },
      "properties" : {
        "FID" : 203,
        "stop_name" : "MAZEGAJA"
      }
    },
    {
      "type" : "Feature",
      "id" : 204,
      "geometry" : {
        "type" : "Point",
        "coordinates" : [
          38.751812280307441,
          9.0616182218469845
        ]
      },
      "properties" : {
        "FID" : 204,
        "stop_name" : "KEBELE 15"
      }
    },
    {
      "type" : "Feature",
      "id" : 205,
      "geometry" : {
        "type" : "Point",
        "coordinates" : [
          38.749260353631371,
          9.0651847493112978
        ]
      },
      "properties" : {
        "FID" : 205,
        "stop_name" : "KECHENE"
      }
    },
    {
      "type" : "Feature",
      "id" : 206,
      "geometry" : {
        "type" : "Point",
        "coordinates" : [
          38.727845316226137,
          9.0338300366530664
        ]
      },
      "properties" : {
        "FID" : 206,
        "stop_name" : "KUAS MEDA MAZORIYA"
      }
    },
    {
      "type" : "Feature",
      "id" : 207,
      "geometry" : {
        "type" : "Point",
        "coordinates" : [
          38.721978899883972,
          8.9807973385928292
        ]
      },
      "properties" : {
        "FID" : 207,
        "stop_name" : "KORI ADEBABAY"
      }
    },
    {
      "type" : "Feature",
      "id" : 208,
      "geometry" : {
        "type" : "Point",
        "coordinates" : [
          38.818007677621793,
          9.0238151522472467
        ]
      },
      "properties" : {
        "FID" : 208,
        "stop_name" : "LAMBERET"
      }
    },
    {
      "type" : "Feature",
      "id" : 209,
      "geometry" : {
        "type" : "Point",
        "coordinates" : [
          38.780568687379656,
          8.87804870740786
        ]
      },
      "properties" : {
        "FID" : 209,
        "stop_name" : "KK"
      }
    },
    {
      "type" : "Feature",
      "id" : 210,
      "geometry" : {
        "type" : "Point",
        "coordinates" : [
          38.770839806337044,
          9.0157637728277393
        ]
      },
      "properties" : {
        "FID" : 210,
        "stop_name" : "KAZANCHIS"
      }
    },
    {
      "type" : "Feature",
      "id" : 211,
      "geometry" : {
        "type" : "Point",
        "coordinates" : [
          38.748525132703151,
          8.9873316659940592
        ]
      },
      "properties" : {
        "FID" : 211,
        "stop_name" : "KERA NIGD BANK"
      }
    },
    {
      "type" : "Feature",
      "id" : 212,
      "geometry" : {
        "type" : "Point",
        "coordinates" : [
          38.715403804828746,
          8.9802594656301107
        ]
      },
      "properties" : {
        "FID" : 212,
        "stop_name" : "KORE"
      }
    },
    {
      "type" : "Feature",
      "id" : 213,
      "geometry" : {
        "type" : "Point",
        "coordinates" : [
          38.705224749760248,
          9.0598187499086382
        ]
      },
      "properties" : {
        "FID" : 213,
        "stop_name" : "KOJJ"
      }
    },
    {
      "type" : "Feature",
      "id" : 214,
      "geometry" : {
        "type" : "Point",
        "coordinates" : [
          38.762372138642135,
          8.9145206039490681
        ]
      },
      "properties" : {
        "FID" : 214,
        "stop_name" : "KALITY GEBRIAL"
      }
    },
    {
      "type" : "Feature",
      "id" : 215,
      "geometry" : {
        "type" : "Point",
        "coordinates" : [
          38.806025612594929,
          8.9977954842766348
        ]
      },
      "properties" : {
        "FID" : 215,
        "stop_name" : "KORYA HOSPITAL"
      }
    },
    {
      "type" : "Feature",
      "id" : 216,
      "geometry" : {
        "type" : "Point",
        "coordinates" : [
          38.762914073373466,
          8.9134662532530609
        ]
      },
      "properties" : {
        "FID" : 216,
        "stop_name" : "MAREMYA BET"
      }
    },
    {
      "type" : "Feature",
      "id" : 217,
      "geometry" : {
        "type" : "Point",
        "coordinates" : [
          38.786209999999997,
          8.9520099999999996
        ]
      },
      "properties" : {
        "FID" : 217,
        "stop_name" : "MARYAM MAZORIA"
      }
    },
    {
      "type" : "Feature",
      "id" : 218,
      "geometry" : {
        "type" : "Point",
        "coordinates" : [
          38.660620002846798,
          8.9295078574934337
        ]
      },
      "properties" : {
        "FID" : 218,
        "stop_name" : "KENTERI TESHAGRO"
      }
    },
    {
      "type" : "Feature",
      "id" : 219,
      "geometry" : {
        "type" : "Point",
        "coordinates" : [
          38.743884345958833,
          9.0446563233340704
        ]
      },
      "properties" : {
        "FID" : 219,
        "stop_name" : "RAS DESTA HOSPITAL"
      }
    },
    {
      "type" : "Feature",
      "id" : 220,
      "geometry" : {
        "type" : "Point",
        "coordinates" : [
          38.737969749777861,
          9.0489901417929222
        ]
      },
      "properties" : {
        "FID" : 220,
        "stop_name" : "REMARK"
      }
    },
    {
      "type" : "Feature",
      "id" : 221,
      "geometry" : {
        "type" : "Point",
        "coordinates" : [
          38.76371342050232,
          9.010956118583664
        ]
      },
      "properties" : {
        "FID" : 221,
        "stop_name" : "S.t ESTIFANOS"
      }
    },
    {
      "type" : "Feature",
      "id" : 222,
      "geometry" : {
        "type" : "Point",
        "coordinates" : [
          38.773848768239148,
          9.0103934443467057
        ]
      },
      "properties" : {
        "FID" : 222,
        "stop_name" : "S.t URAEL CHURCH"
      }
    },
    {
      "type" : "Feature",
      "id" : 223,
      "geometry" : {
        "type" : "Point",
        "coordinates" : [
          38.771430000000002,
          8.9980399999999996
        ]
      },
      "properties" : {
        "FID" : 223,
        "stop_name" : "OLOMPIA"
      }
    },
    {
      "type" : "Feature",
      "id" : 224,
      "geometry" : {
        "type" : "Point",
        "coordinates" : [
          38.690739999999998,
          8.9818499999999979
        ]
      },
      "properties" : {
        "FID" : 224,
        "stop_name" : "MOBIL"
      }
    },
    {
      "type" : "Feature",
      "id" : 225,
      "geometry" : {
        "type" : "Point",
        "coordinates" : [
          38.824013905750135,
          8.8948271814361863
        ]
      },
      "properties" : {
        "FID" : 225,
        "stop_name" : "POLICE STATION"
      }
    },
    {
      "type" : "Feature",
      "id" : 226,
      "geometry" : {
        "type" : "Point",
        "coordinates" : [
          38.773640416986339,
          8.9803934287152813
        ]
      },
      "properties" : {
        "FID" : 226,
        "stop_name" : "MICHAEL"
      }
    },
    {
      "type" : "Feature",
      "id" : 227,
      "geometry" : {
        "type" : "Point",
        "coordinates" : [
          38.803779266800454,
          8.8939545518315963
        ]
      },
      "properties" : {
        "FID" : 227,
        "stop_name" : "MESHUALEKIA"
      }
    },
    {
      "type" : "Feature",
      "id" : 228,
      "geometry" : {
        "type" : "Point",
        "coordinates" : [
          38.761051100000003,
          9.0650168999999998
        ]
      },
      "properties" : {
        "FID" : 228,
        "stop_name" : "SAMBA NEKERSA"
      }
    },
    {
      "type" : "Feature",
      "id" : 229,
      "geometry" : {
        "type" : "Point",
        "coordinates" : [
          38.761497243009188,
          8.9178759337854991
        ]
      },
      "properties" : {
        "FID" : 229,
        "stop_name" : "SHEGER"
      }
    },
    {
      "type" : "Feature",
      "id" : 230,
      "geometry" : {
        "type" : "Point",
        "coordinates" : [
          38.765472051966242,
          8.9243646602499691
        ]
      },
      "properties" : {
        "FID" : 230,
        "stop_name" : "NOC"
      }
    },
    {
      "type" : "Feature",
      "id" : 231,
      "geometry" : {
        "type" : "Point",
        "coordinates" : [
          38.733081060862617,
          9.0285186205264907
        ]
      },
      "properties" : {
        "FID" : 231,
        "stop_name" : "SEBATEGNA"
      }
    },
    {
      "type" : "Feature",
      "id" : 232,
      "geometry" : {
        "type" : "Point",
        "coordinates" : [
          38.745827394287176,
          9.0155461346486749
        ]
      },
      "properties" : {
        "FID" : 232,
        "stop_name" : "MEXICO CONDOMINIUM"
      }
    },
    {
      "type" : "Feature",
      "id" : 233,
      "geometry" : {
        "type" : "Point",
        "coordinates" : [
          38.740273599478662,
          9.0107334646951767
        ]
      },
      "properties" : {
        "FID" : 233,
        "stop_name" : "POLICE HOSPITAL"
      }
    },
    {
      "type" : "Feature",
      "id" : 234,
      "geometry" : {
        "type" : "Point",
        "coordinates" : [
          38.77338175510976,
          9.0384603444686764
        ]
      },
      "properties" : {
        "FID" : 234,
        "stop_name" : "MENELIK HOSPITIAL"
      }
    },
    {
      "type" : "Feature",
      "id" : 235,
      "geometry" : {
        "type" : "Point",
        "coordinates" : [
          38.677360382283545,
          8.9764504455888066
        ]
      },
      "properties" : {
        "FID" : 235,
        "stop_name" : "REPI"
      }
    },
    {
      "type" : "Feature",
      "id" : 236,
      "geometry" : {
        "type" : "Point",
        "coordinates" : [
          38.751945879140671,
          9.0231364891691932
        ]
      },
      "properties" : {
        "FID" : 236,
        "stop_name" : "POST OFFICE"
      }
    },
    {
      "type" : "Feature",
      "id" : 237,
      "geometry" : {
        "type" : "Point",
        "coordinates" : [
          38.66974819670174,
          8.9470339879941605
        ]
      },
      "properties" : {
        "FID" : 237,
        "stop_name" : "POLICE KEBEB"
      }
    },
    {
      "type" : "Feature",
      "id" : 238,
      "geometry" : {
        "type" : "Point",
        "coordinates" : [
          38.7276448,
          9.0588027999999987
        ]
      },
      "properties" : {
        "FID" : 238,
        "stop_name" : "RUFAEL"
      }
    },
    {
      "type" : "Feature",
      "id" : 239,
      "geometry" : {
        "type" : "Point",
        "coordinates" : [
          38.754421066839413,
          9.0328219261960321
        ]
      },
      "properties" : {
        "FID" : 239,
        "stop_name" : "CINEMA EMPIRE"
      }
    },
    {
      "type" : "Feature",
      "id" : 240,
      "geometry" : {
        "type" : "Point",
        "coordinates" : [
          38.754213590886103,
          8.9830683382956682
        ]
      },
      "properties" : {
        "FID" : 240,
        "stop_name" : "PEPSI"
      }
    },
    {
      "type" : "Feature",
      "id" : 241,
      "geometry" : {
        "type" : "Point",
        "coordinates" : [
          38.737682890119068,
          8.9950587509990978
        ]
      },
      "properties" : {
        "FID" : 241,
        "stop_name" : "SARBET"
      }
    },
    {
      "type" : "Feature",
      "id" : 242,
      "geometry" : {
        "type" : "Point",
        "coordinates" : [
          38.752877865367772,
          9.1345227542377145
        ]
      },
      "properties" : {
        "FID" : 242,
        "stop_name" : "MIZAN"
      }
    },
    {
      "type" : "Feature",
      "id" : 243,
      "geometry" : {
        "type" : "Point",
        "coordinates" : [
          38.746750040812451,
          8.976315658544884
        ]
      },
      "properties" : {
        "FID" : 243,
        "stop_name" : "MESKEL"
      }
    },
    {
      "type" : "Feature",
      "id" : 244,
      "geometry" : {
        "type" : "Point",
        "coordinates" : [
          38.772399221461875,
          8.9897733703937153
        ]
      },
      "properties" : {
        "FID" : 244,
        "stop_name" : "MINISTRY OF ARBTO ADER"
      }
    },
    {
      "type" : "Feature",
      "id" : 245,
      "geometry" : {
        "type" : "Point",
        "coordinates" : [
          38.785548655622016,
          9.0224281606298984
        ]
      },
      "properties" : {
        "FID" : 245,
        "stop_name" : "MISRAK"
      }
    },
    {
      "type" : "Feature",
      "id" : 246,
      "geometry" : {
        "type" : "Point",
        "coordinates" : [
          38.714980175412876,
          9.0671320267047442
        ]
      },
      "properties" : {
        "FID" : 246,
        "stop_name" : "SHEGOLE MENDER 7"
      }
    },
    {
      "type" : "Feature",
      "id" : 247,
      "geometry" : {
        "type" : "Point",
        "coordinates" : [
          38.725746773291327,
          9.0667052795117318
        ]
      },
      "properties" : {
        "FID" : 247,
        "stop_name" : "MELES FOUNDATION"
      }
    },
    {
      "type" : "Feature",
      "id" : 248,
      "geometry" : {
        "type" : "Point",
        "coordinates" : [
          38.764867859241882,
          8.9574089404985635
        ]
      },
      "properties" : {
        "FID" : 248,
        "stop_name" : "SEFER 5"
      }
    },
    {
      "type" : "Feature",
      "id" : 249,
      "geometry" : {
        "type" : "Point",
        "coordinates" : [
          38.692131139733391,
          8.9885985869590268
        ]
      },
      "properties" : {
        "FID" : 249,
        "stop_name" : "MESGID"
      }
    },
    {
      "type" : "Feature",
      "id" : 250,
      "geometry" : {
        "type" : "Point",
        "coordinates" : [
          38.721443497040966,
          8.969305583144612
        ]
      },
      "properties" : {
        "FID" : 250,
        "stop_name" : "MICHAEL DELDEY"
      }
    },
    {
      "type" : "Feature",
      "id" : 251,
      "geometry" : {
        "type" : "Point",
        "coordinates" : [
          38.722320156076393,
          9.0361555543040399
        ]
      },
      "properties" : {
        "FID" : 251,
        "stop_name" : "SEFERE SELAM"
      }
    },
    {
      "type" : "Feature",
      "id" : 252,
      "geometry" : {
        "type" : "Point",
        "coordinates" : [
          38.735488444930915,
          9.0226702227390927
        ]
      },
      "properties" : {
        "FID" : 252,
        "stop_name" : "MOLA MARU"
      }
    },
    {
      "type" : "Feature",
      "id" : 253,
      "geometry" : {
        "type" : "Point",
        "coordinates" : [
          38.673702200000001,
          8.9923214999999974
        ]
      },
      "properties" : {
        "FID" : 253,
        "stop_name" : "SELEFIA"
      }
    },
    {
      "type" : "Feature",
      "id" : 254,
      "geometry" : {
        "type" : "Point",
        "coordinates" : [
          38.717622129084006,
          9.0172552615715347
        ]
      },
      "properties" : {
        "FID" : 254,
        "stop_name" : "SAUDI ARABIA EMBASSY"
      }
    },
    {
      "type" : "Feature",
      "id" : 255,
      "geometry" : {
        "type" : "Point",
        "coordinates" : [
          38.699072078451394,
          9.0149009183373785
        ]
      },
      "properties" : {
        "FID" : 255,
        "stop_name" : "MENDIDA"
      }
    },
    {
      "type" : "Feature",
      "id" : 256,
      "geometry" : {
        "type" : "Point",
        "coordinates" : [
          38.749790817076146,
          9.0343092606725914
        ]
      },
      "properties" : {
        "FID" : 256,
        "stop_name" : "SHOA DABO"
      }
    },
    {
      "type" : "Feature",
      "id" : 257,
      "geometry" : {
        "type" : "Point",
        "coordinates" : [
          38.766058781375449,
          9.0167968020709832
        ]
      },
      "properties" : {
        "FID" : 257,
        "stop_name" : "SEDESTEGNA"
      }
    },
    {
      "type" : "Feature",
      "id" : 258,
      "geometry" : {
        "type" : "Point",
        "coordinates" : [
          38.763533463691061,
          8.9545409334449211
        ]
      },
      "properties" : {
        "FID" : 258,
        "stop_name" : "SARIS SHOA DABO"
      }
    },
    {
      "type" : "Feature",
      "id" : 259,
      "geometry" : {
        "type" : "Point",
        "coordinates" : [
          38.726584912470216,
          9.0641371503200343
        ]
      },
      "properties" : {
        "FID" : 259,
        "stop_name" : "MENDER 7"
      }
    },
    {
      "type" : "Feature",
      "id" : 260,
      "geometry" : {
        "type" : "Point",
        "coordinates" : [
          38.739547840663541,
          9.0579610796682299
        ]
      },
      "properties" : {
        "FID" : 260,
        "stop_name" : "SHEGER PARK"
      }
    },
    {
      "type" : "Feature",
      "id" : 261,
      "geometry" : {
        "type" : "Point",
        "coordinates" : [
          38.763188463645989,
          8.9633902423600897
        ]
      },
      "properties" : {
        "FID" : 261,
        "stop_name" : "MITEN CLINIC"
      }
    },
    {
      "type" : "Feature",
      "id" : 262,
      "geometry" : {
        "type" : "Point",
        "coordinates" : [
          38.746339624514299,
          9.0116295255599219
        ]
      },
      "properties" : {
        "FID" : 262,
        "stop_name" : "SHEBELE"
      }
    },
    {
      "type" : "Feature",
      "id" : 263,
      "geometry" : {
        "type" : "Point",
        "coordinates" : [
          38.761852975758543,
          9.0608515571780579
        ]
      },
      "properties" : {
        "FID" : 263,
        "stop_name" : "SHERO MEDA"
      }
    },
    {
      "type" : "Feature",
      "id" : 264,
      "geometry" : {
        "type" : "Point",
        "coordinates" : [
          38.746606062195909,
          9.0065036929865983
        ]
      },
      "properties" : {
        "FID" : 264,
        "stop_name" : "MEXICO K.KARE"
      }
    },
    {
      "type" : "Feature",
      "id" : 265,
      "geometry" : {
        "type" : "Point",
        "coordinates" : [
          38.767861951815767,
          9.0463315209949116
        ]
      },
      "properties" : {
        "FID" : 265,
        "stop_name" : "MENELIK HOSPITAL"
      }
    },
    {
      "type" : "Feature",
      "id" : 266,
      "geometry" : {
        "type" : "Point",
        "coordinates" : [
          38.756593708052627,
          9.0395681021657968
        ]
      },
      "properties" : {
        "FID" : 266,
        "stop_name" : "RAS MEKONEN"
      }
    },
    {
      "type" : "Feature",
      "id" : 267,
      "geometry" : {
        "type" : "Point",
        "coordinates" : [
          38.813402509403211,
          8.9947406425512604
        ]
      },
      "properties" : {
        "FID" : 267,
        "stop_name" : "ROBA DABO BET"
      }
    },
    {
      "type" : "Feature",
      "id" : 268,
      "geometry" : {
        "type" : "Point",
        "coordinates" : [
          38.736980000000003,
          9.0291799999999984
        ]
      },
      "properties" : {
        "FID" : 268,
        "stop_name" : "MERKATO"
      }
    },
    {
      "type" : "Feature",
      "id" : 269,
      "geometry" : {
        "type" : "Point",
        "coordinates" : [
          38.84194206231593,
          9.0215378680515315
        ]
      },
      "properties" : {
        "FID" : 269,
        "stop_name" : "S.t MICHAEL"
      }
    },
    {
      "type" : "Feature",
      "id" : 270,
      "geometry" : {
        "type" : "Point",
        "coordinates" : [
          38.668080000000003,
          8.98062
        ]
      },
      "properties" : {
        "FID" : 270,
        "stop_name" : "REPI CONDOMINIUM"
      }
    },
    {
      "type" : "Feature",
      "id" : 271,
      "geometry" : {
        "type" : "Point",
        "coordinates" : [
          38.758853969922214,
          9.0517380558080358
        ]
      },
      "properties" : {
        "FID" : 271,
        "stop_name" : "MENEN"
      }
    },
    {
      "type" : "Feature",
      "id" : 272,
      "geometry" : {
        "type" : "Point",
        "coordinates" : [
          38.569795837276452,
          9.0566284389822922
        ]
      },
      "properties" : {
        "FID" : 272,
        "stop_name" : "MENAGESHA"
      }
    },
    {
      "type" : "Feature",
      "id" : 273,
      "geometry" : {
        "type" : "Point",
        "coordinates" : [
          38.668872317993156,
          8.9414433474540065
        ]
      },
      "properties" : {
        "FID" : 273,
        "stop_name" : "MESKID"
      }
    },
    {
      "type" : "Feature",
      "id" : 274,
      "geometry" : {
        "type" : "Point",
        "coordinates" : [
          38.668502059027055,
          9.0749157238789202
        ]
      },
      "properties" : {
        "FID" : 274,
        "stop_name" : "OFIN CLINIC"
      }
    },
    {
      "type" : "Feature",
      "id" : 275,
      "geometry" : {
        "type" : "Point",
        "coordinates" : [
          38.74162875348739,
          9.0303129981484069
        ]
      },
      "properties" : {
        "FID" : 275,
        "stop_name" : "SINIMA RAS"
      }
    },
    {
      "type" : "Feature",
      "id" : 276,
      "geometry" : {
        "type" : "Point",
        "coordinates" : [
          38.74150519045574,
          9.0322235720981077
        ]
      },
      "properties" : {
        "FID" : 276,
        "stop_name" : "TEKLEHYMANOT"
      }
    },
    {
      "type" : "Feature",
      "id" : 277,
      "geometry" : {
        "type" : "Point",
        "coordinates" : [
          38.776631742387735,
          9.0203347478978735
        ]
      },
      "properties" : {
        "FID" : 277,
        "stop_name" : "WOREDA 6"
      }
    },
    {
      "type" : "Feature",
      "id" : 278,
      "geometry" : {
        "type" : "Point",
        "coordinates" : [
          38.795632982535516,
          9.0239855991724731
        ]
      },
      "properties" : {
        "FID" : 278,
        "stop_name" : "SHOLA GEBYA"
      }
    },
    {
      "type" : "Feature",
      "id" : 279,
      "geometry" : {
        "type" : "Point",
        "coordinates" : [
          38.759708103990995,
          9.0577730762158168
        ]
      },
      "properties" : {
        "FID" : 279,
        "stop_name" : "SHIRO MEDA TENA TABIA"
      }
    },
    {
      "type" : "Feature",
      "id" : 280,
      "geometry" : {
        "type" : "Point",
        "coordinates" : [
          38.790446690891656,
          9.0214891034958438
        ]
      },
      "properties" : {
        "FID" : 280,
        "stop_name" : "SIGNAL"
      }
    },
    {
      "type" : "Feature",
      "id" : 281,
      "geometry" : {
        "type" : "Point",
        "coordinates" : [
          38.701873390494129,
          8.9837824225607914
        ]
      },
      "properties" : {
        "FID" : 281,
        "stop_name" : "ZENEBEWERK"
      }
    },
    {
      "type" : "Feature",
      "id" : 282,
      "geometry" : {
        "type" : "Point",
        "coordinates" : [
          38.772097655134026,
          8.9798420113386381
        ]
      },
      "properties" : {
        "FID" : 282,
        "stop_name" : "ST.MICHAEL BRIDGE"
      }
    },
    {
      "type" : "Feature",
      "id" : 283,
      "geometry" : {
        "type" : "Point",
        "coordinates" : [
          38.804018276227062,
          8.8931595277465014
        ]
      },
      "properties" : {
        "FID" : 283,
        "stop_name" : "UNIVERSITY"
      }
    },
    {
      "type" : "Feature",
      "id" : 284,
      "geometry" : {
        "type" : "Point",
        "coordinates" : [
          38.789882148233936,
          8.8793701517943511
        ]
      },
      "properties" : {
        "FID" : 284,
        "stop_name" : "TIRUNESH BEJING HOSPITAL"
      }
    },
    {
      "type" : "Feature",
      "id" : 285,
      "geometry" : {
        "type" : "Point",
        "coordinates" : [
          38.803296681614029,
          8.855553888809121
        ]
      },
      "properties" : {
        "FID" : 285,
        "stop_name" : "TULU DIMTU"
      }
    },
    {
      "type" : "Feature",
      "id" : 286,
      "geometry" : {
        "type" : "Point",
        "coordinates" : [
          38.7208039,
          9.0524655999999997
        ]
      },
      "properties" : {
        "FID" : 286,
        "stop_name" : "WEREDA 8"
      }
    },
    {
      "type" : "Feature",
      "id" : 287,
      "geometry" : {
        "type" : "Point",
        "coordinates" : [
          38.747995207174164,
          8.9924607400189149
        ]
      },
      "properties" : {
        "FID" : 287,
        "stop_name" : "TOTAL MADEYA BULGARIA"
      }
    },
    {
      "type" : "Feature",
      "id" : 288,
      "geometry" : {
        "type" : "Point",
        "coordinates" : [
          38.720913992261096,
          9.0126546084233787
        ]
      },
      "properties" : {
        "FID" : 288,
        "stop_name" : "TORE HAYLOCH"
      }
    },
    {
      "type" : "Feature",
      "id" : 289,
      "geometry" : {
        "type" : "Point",
        "coordinates" : [
          38.667895444698502,
          8.9375269401330169
        ]
      },
      "properties" : {
        "FID" : 289,
        "stop_name" : "WAS OIL"
      }
    },
    {
      "type" : "Feature",
      "id" : 290,
      "geometry" : {
        "type" : "Point",
        "coordinates" : [
          38.711801541460183,
          9.0443927691030943
        ]
      },
      "properties" : {
        "FID" : 290,
        "stop_name" : "TENA TABIA"
      }
    },
    {
      "type" : "Feature",
      "id" : 291,
      "geometry" : {
        "type" : "Point",
        "coordinates" : [
          38.759086613317265,
          8.9975454339930341
        ]
      },
      "properties" : {
        "FID" : 291,
        "stop_name" : "TEMENJA YAZH"
      }
    },
    {
      "type" : "Feature",
      "id" : 292,
      "geometry" : {
        "type" : "Point",
        "coordinates" : [
          38.711893874964936,
          9.0492081070753532
        ]
      },
      "properties" : {
        "FID" : 292,
        "stop_name" : "TRAFFIC SEFER"
      }
    },
    {
      "type" : "Feature",
      "id" : 293,
      "geometry" : {
        "type" : "Point",
        "coordinates" : [
          38.710942532320821,
          9.0501599502584096
        ]
      },
      "properties" : {
        "FID" : 293,
        "stop_name" : "SHI80 HOTEL"
      }
    },
    {
      "type" : "Feature",
      "id" : 294,
      "geometry" : {
        "type" : "Point",
        "coordinates" : [
          38.70587184451076,
          9.0503748176148875
        ]
      },
      "properties" : {
        "FID" : 294,
        "stop_name" : "TERO MOSQUE"
      }
    },
    {
      "type" : "Feature",
      "id" : 295,
      "geometry" : {
        "type" : "Point",
        "coordinates" : [
          38.717732412138126,
          8.992182986491482
        ]
      },
      "properties" : {
        "FID" : 295,
        "stop_name" : "TOTAL (3 KUTR MAZORIYA)"
      }
    },
    {
      "type" : "Feature",
      "id" : 296,
      "geometry" : {
        "type" : "Point",
        "coordinates" : [
          38.72269675824829,
          8.9889030127584828
        ]
      },
      "properties" : {
        "FID" : 296,
        "stop_name" : "SHOA SHOPPING CENTER"
      }
    },
    {
      "type" : "Feature",
      "id" : 297,
      "geometry" : {
        "type" : "Point",
        "coordinates" : [
          38.725578650024197,
          8.9914133127735596
        ]
      },
      "properties" : {
        "FID" : 297,
        "stop_name" : "ST.GEBRIEL CHURCH"
      }
    },
    {
      "type" : "Feature",
      "id" : 298,
      "geometry" : {
        "type" : "Point",
        "coordinates" : [
          38.741860831304479,
          8.9900498260947579
        ]
      },
      "properties" : {
        "FID" : 298,
        "stop_name" : "TSEDEY FESASH SAMUNA"
      }
    },
    {
      "type" : "Feature",
      "id" : 299,
      "geometry" : {
        "type" : "Point",
        "coordinates" : [
          38.731143775143131,
          9.0462282638274747
        ]
      },
      "properties" : {
        "FID" : 299,
        "stop_name" : "TIKUR ADAYE"
      }
    },
    {
      "type" : "Feature",
      "id" : 300,
      "geometry" : {
        "type" : "Point",
        "coordinates" : [
          38.74961284993033,
          8.9815125901343595
        ]
      },
      "properties" : {
        "FID" : 300,
        "stop_name" : "SOFIYA MALL"
      }
    },
    {
      "type" : "Feature",
      "id" : 301,
      "geometry" : {
        "type" : "Point",
        "coordinates" : [
          38.753774928901073,
          9.1461507811814773
        ]
      },
      "properties" : {
        "FID" : 301,
        "stop_name" : "TESHAGRO"
      }
    },
    {
      "type" : "Feature",
      "id" : 302,
      "geometry" : {
        "type" : "Point",
        "coordinates" : [
          38.760728891419582,
          9.0440103967396936
        ]
      },
      "properties" : {
        "FID" : 302,
        "stop_name" : "YEKATIT12 HOSPIAL"
      }
    },
    {
      "type" : "Feature",
      "id" : 303,
      "geometry" : {
        "type" : "Point",
        "coordinates" : [
          38.774092478609369,
          8.9930793517043774
        ]
      },
      "properties" : {
        "FID" : 303,
        "stop_name" : "WOLLO SEFER"
      }
    },
    {
      "type" : "Feature",
      "id" : 304,
      "geometry" : {
        "type" : "Point",
        "coordinates" : [
          38.73612303356812,
          9.0608888418683176
        ]
      },
      "properties" : {
        "FID" : 304,
        "stop_name" : "SULULTA"
      }
    },
    {
      "type" : "Feature",
      "id" : 305,
      "geometry" : {
        "type" : "Point",
        "coordinates" : [
          38.761894763095363,
          9.0329738786121752
        ]
      },
      "properties" : {
        "FID" : 305,
        "stop_name" : "TURIST HOTEL"
      }
    },
    {
      "type" : "Feature",
      "id" : 306,
      "geometry" : {
        "type" : "Point",
        "coordinates" : [
          38.763694912737947,
          8.9817893424886268
        ]
      },
      "properties" : {
        "FID" : 306,
        "stop_name" : "WENGELAWIT BUILDING (ADEBABAY)"
      }
    },
    {
      "type" : "Feature",
      "id" : 307,
      "geometry" : {
        "type" : "Point",
        "coordinates" : [
          38.771627715270199,
          8.8960332367144428
        ]
      },
      "properties" : {
        "FID" : 307,
        "stop_name" : "TOTAL KALITY"
      }
    },
    {
      "type" : "Feature",
      "id" : 308,
      "geometry" : {
        "type" : "Point",
        "coordinates" : [
          38.762173620915426,
          8.9694830196807409
        ]
      },
      "properties" : {
        "FID" : 308,
        "stop_name" : "YOSEPH"
      }
    },
    {
      "type" : "Feature",
      "id" : 309,
      "geometry" : {
        "type" : "Point",
        "coordinates" : [
          38.76251577474666,
          8.9678446190960237
        ]
      },
      "properties" : {
        "FID" : 309,
        "stop_name" : "YOSEPH (BUNA BORD)"
      }
    },
    {
      "type" : "Feature",
      "id" : 310,
      "geometry" : {
        "type" : "Point",
        "coordinates" : [
          38.751903274574822,
          9.0248615369911231
        ]
      },
      "properties" : {
        "FID" : 310,
        "stop_name" : "TELE"
      }
    },
    {
      "type" : "Feature",
      "id" : 311,
      "geometry" : {
        "type" : "Point",
        "coordinates" : [
          38.744391504632084,
          9.0285248845777062
        ]
      },
      "properties" : {
        "FID" : 311,
        "stop_name" : "TEKLE HAYMANOT"
      }
    },
    {
      "type" : "Feature",
      "id" : 312,
      "geometry" : {
        "type" : "Point",
        "coordinates" : [
          38.739594009361866,
          9.0312234548454011
        ]
      },
      "properties" : {
        "FID" : 312,
        "stop_name" : "TANA GEBEYA"
      }
    },
    {
      "type" : "Feature",
      "id" : 313,
      "geometry" : {
        "type" : "Point",
        "coordinates" : [
          38.746730722389543,
          9.0318580417925336
        ]
      },
      "properties" : {
        "FID" : 313,
        "stop_name" : "SUMALE TERA"
      }
    },
    {
      "type" : "Feature",
      "id" : 314,
      "geometry" : {
        "type" : "Point",
        "coordinates" : [
          38.77746814904711,
          9.0058502211434739
        ]
      },
      "properties" : {
        "FID" : 314,
        "stop_name" : "ST.URAEL"
      }
    },
    {
      "type" : "Feature",
      "id" : 315,
      "geometry" : {
        "type" : "Point",
        "coordinates" : [
          38.771099117700132,
          8.9986114536155348
        ]
      },
      "properties" : {
        "FID" : 315,
        "stop_name" : "TOTAL GAS STATION"
      }
    },
    {
      "type" : "Feature",
      "id" : 316,
      "geometry" : {
        "type" : "Point",
        "coordinates" : [
          38.774972105132299,
          9.0103463566284123
        ]
      },
      "properties" : {
        "FID" : 316,
        "stop_name" : "URAEL"
      }
    },
    {
      "type" : "Feature",
      "id" : 317,
      "geometry" : {
        "type" : "Point",
        "coordinates" : [
          38.757726639920271,
          9.178452693133357
        ]
      },
      "properties" : {
        "FID" : 317,
        "stop_name" : "SILASA"
      }
    },
    {
      "type" : "Feature",
      "id" : 318,
      "geometry" : {
        "type" : "Point",
        "coordinates" : [
          38.802819999999997,
          8.8548600000000004
        ]
      },
      "properties" : {
        "FID" : 318,
        "stop_name" : "TULUDIMTU SQUARE"
      }
    },
    {
      "type" : "Feature",
      "id" : 319,
      "geometry" : {
        "type" : "Point",
        "coordinates" : [
          38.739036636598847,
          9.1264128423932824
        ]
      },
      "properties" : {
        "FID" : 319,
        "stop_name" : "SHIFINA"
      }
    },
    {
      "type" : "Feature",
      "id" : 320,
      "geometry" : {
        "type" : "Point",
        "coordinates" : [
          38.748443457108422,
          9.0188105886092806
        ]
      },
      "properties" : {
        "FID" : 320,
        "stop_name" : "TEKUR ANBESSA TESHAGRO"
      }
    },
    {
      "type" : "Feature",
      "id" : 321,
      "geometry" : {
        "type" : "Point",
        "coordinates" : [
          38.743167666491154,
          9.0290164546890583
        ]
      },
      "properties" : {
        "FID" : 321,
        "stop_name" : "TEKLEHAIMANOT TESHAGRO"
      }
    },
    {
      "type" : "Feature",
      "id" : 322,
      "geometry" : {
        "type" : "Point",
        "coordinates" : [
          38.748159999999999,
          9.0503699999999974
        ]
      },
      "properties" : {
        "FID" : 322,
        "stop_name" : "ZEBEGNA SEFER"
      }
    },
    {
      "type" : "Feature",
      "id" : 323,
      "geometry" : {
        "type" : "Point",
        "coordinates" : [
          38.75123,
          9.0647851347583153
        ]
      },
      "properties" : {
        "FID" : 323,
        "stop_name" : "VEMERUNA"
      }
    },
    {
      "type" : "Feature",
      "id" : 324,
      "geometry" : {
        "type" : "Point",
        "coordinates" : [
          38.737841731322419,
          8.9899448858339888
        ]
      },
      "properties" : {
        "FID" : 324,
        "stop_name" : "VATICAN"
      }
    },
    {
      "type" : "Feature",
      "id" : 325,
      "geometry" : {
        "type" : "Point",
        "coordinates" : [
          38.746073962892325,
          9.0242080569242429
        ]
      },
      "properties" : {
        "FID" : 325,
        "stop_name" : "TAKILAHAYMANOT"
      }
    },
    {
      "type" : "Feature",
      "id" : 326,
      "geometry" : {
        "type" : "Point",
        "coordinates" : [
          38.744648791914159,
          9.0267872953756001
        ]
      },
      "properties" : {
        "FID" : 326,
        "stop_name" : "TEKLAHAYMANOT 2"
      }
    },
    {
      "type" : "Feature",
      "id" : 327,
      "geometry" : {
        "type" : "Point",
        "coordinates" : [
          38.79152174417608,
          9.0271872122519028
        ]
      },
      "properties" : {
        "FID" : 327,
        "stop_name" : "SHOLA CHAF"
      }
    },
    {
      "type" : "Feature",
      "id" : 328,
      "geometry" : {
        "type" : "Point",
        "coordinates" : [
          38.852019508349791,
          9.0154772654740061
        ]
      },
      "properties" : {
        "FID" : 328,
        "stop_name" : "SUNSHINE ADEBABAY"
      }
    },
    {
      "type" : "Feature",
      "id" : 329,
      "geometry" : {
        "type" : "Point",
        "coordinates" : [
          38.774096012114512,
          8.994302733221069
        ]
      },
      "properties" : {
        "FID" : 329,
        "stop_name" : "WELO SEFER"
      }
    },
    {
      "type" : "Feature",
      "id" : 330,
      "geometry" : {
        "type" : "Point",
        "coordinates" : [
          38.850920000000002,
          9.0211000000000023
        ]
      },
      "properties" : {
        "FID" : 330,
        "stop_name" : "YETEBABERUT CHAF"
      }
    },
    {
      "type" : "Feature",
      "id" : 331,
      "geometry" : {
        "type" : "Point",
        "coordinates" : [
          38.842983888694597,
          9.0215020139132953
        ]
      },
      "properties" : {
        "FID" : 331,
        "stop_name" : "ST MICHALE"
      }
    },
    {
      "type" : "Feature",
      "id" : 332,
      "geometry" : {
        "type" : "Point",
        "coordinates" : [
          38.671701836471584,
          8.9592949465418261
        ]
      },
      "properties" : {
        "FID" : 332,
        "stop_name" : "WELETE"
      }
    },
    {
      "type" : "Feature",
      "id" : 333,
      "geometry" : {
        "type" : "Point",
        "coordinates" : [
          38.717499625325488,
          8.9935228689416054
        ]
      },
      "properties" : {
        "FID" : 333,
        "stop_name" : "TOTAL TESHAGRO"
      }
    },
    {
      "type" : "Feature",
      "id" : 334,
      "geometry" : {
        "type" : "Point",
        "coordinates" : [
          38.76164,
          9.0478500000000004
        ]
      },
      "properties" : {
        "FID" : 334,
        "stop_name" : "UNIVERCITY_6 KILLO"
      }
    },
    {
      "type" : "Feature",
      "id" : 335,
      "geometry" : {
        "type" : "Point",
        "coordinates" : [
          38.7543323991882,
          9.044640573190339
        ]
      },
      "properties" : {
        "FID" : 335,
        "stop_name" : "YEKATIT HOSPITAL"
      }
    },
    {
      "type" : "Feature",
      "id" : 336,
      "geometry" : {
        "type" : "Point",
        "coordinates" : [
          38.780254600955821,
          9.0231894600957201
        ]
      },
      "properties" : {
        "FID" : 336,
        "stop_name" : "WARYT SQUARE"
      }
    },
    {
      "type" : "Feature",
      "id" : 337,
      "geometry" : {
        "type" : "Point",
        "coordinates" : [
          38.80868199500334,
          8.9948693861528408
        ]
      },
      "properties" : {
        "FID" : 337,
        "stop_name" : "TAXI TERA"
      }
    },
    {
      "type" : "Feature",
      "id" : 338,
      "geometry" : {
        "type" : "Point",
        "coordinates" : [
          38.811442449517479,
          8.9947754272759184
        ]
      },
      "properties" : {
        "FID" : 338,
        "stop_name" : "SUN SHINE"
      }
    },